[
	{
        "copyright": "The data included in this document is from www.openstreetmap.org. The data is made available under ODbL.",
		"name": "Molo Beverello",
		"latitude": 40.8384293,
		"longitude": 14.2551274
	},
	{
		"name": "Il Caffettucio",
		"latitude": 40.8531597,
		"longitude": 14.2700458
	},
	{
		"name": "Caffe dei Principe",
		"latitude": 40.8427792,
		"longitude": 14.2325913
	},
	{
		"name": "Cup Cap's Coffee",
		"latitude": 40.8426027,
		"longitude": 14.2330495
	},
	{
		"name": "Caffe Roma",
		"latitude": 40.8386155,
		"longitude": 14.2497371
	},
	{
		"name": "Caffeteria Umberto",
		"latitude": 40.8383171,
		"longitude": 14.2500572
	},
	{
		"name": "Chalet Ciro",
		"latitude": 40.8267492,
		"longitude": 14.2201384
	},
	{
		"name": "Petrarca",
		"latitude": 40.8083442,
		"longitude": 14.1982036
	},
	{
		"name": "Ferrieri",
		"latitude": 40.8533701,
		"longitude": 14.2713791
	},
	{
		"name": "Luna Rossa",
		"latitude": 40.8532935,
		"longitude": 14.2708631
	},
	{
		"name": "Gran Caffè Gambrinus",
		"latitude": 40.8367413,
		"longitude": 14.2484715
	},
	{
		"name": "Alexander Caffe",
		"latitude": 40.8482536,
		"longitude": 14.2528086
	},
	{
		"name": "Gran Caffe Neapolis",
		"latitude": 40.8482899,
		"longitude": 14.2552623
	},
	{
		"name": "Sedili",
		"latitude": 40.848782,
		"longitude": 14.2546376
	},
	{
		"name": "Happy Break",
		"latitude": 40.8198394,
		"longitude": 14.1747268
	},
	{
		"name": "Les Fleurs",
		"latitude": 40.8192275,
		"longitude": 14.1749772
	},
	{
		"name": "Malife",
		"latitude": 40.8168623,
		"longitude": 14.1750165
	},
	{
		"name": "L'eden",
		"latitude": 40.8162343,
		"longitude": 14.1731711
	},
	{
		"name": "Antico Caffe Moro",
		"latitude": 40.8515771,
		"longitude": 14.2696353
	},
	{
		"name": "Caffeteria La Glaciale",
		"latitude": 40.8516656,
		"longitude": 14.2704679
	},
	{
		"name": "VyTA",
		"latitude": 40.8517422,
		"longitude": 14.2724138
	},
	{
		"name": "Caffetteria Miracoli",
		"latitude": 40.8584463,
		"longitude": 14.2552729
	},
	{
		"name": "Rescigno",
		"latitude": 40.8559748,
		"longitude": 14.2577199
	},
	{
		"name": "Glamour Bar",
		"latitude": 40.8715284,
		"longitude": 14.3335833
	},
	{
		"name": "Scaturchio",
		"latitude": 40.8482755,
		"longitude": 14.2551399
	},
	{
		"name": "Caffè Rosati",
		"latitude": 40.8369771,
		"longitude": 14.2484196
	},
	{
		"name": "Prosit cafe",
		"latitude": 40.8515129,
		"longitude": 14.2267205
	},
	{
		"name": "Azar",
		"latitude": 40.8432109,
		"longitude": 14.2299074
	},
	{
		"name": "Al 22 (pizzeria)",
		"latitude": 40.8452493,
		"longitude": 14.2482804
	},
	{
		"name": "Spagnuolo",
		"latitude": 40.8464053,
		"longitude": 14.2483201
	},
	{
		"name": "Caffetteria Sommella",
		"latitude": 40.8462885,
		"longitude": 14.2491491
	},
	{
		"name": "il Chico d'oro",
		"latitude": 40.8398158,
		"longitude": 14.2539091
	},
	{
		"name": "Moreno",
		"latitude": 40.8400791,
		"longitude": 14.2554048
	},
	{
		"name": "Soriano 20",
		"latitude": 40.84845,
		"longitude": 14.2491142
	},
	{
		"name": "Enjoy Caffe'",
		"latitude": 40.8501014,
		"longitude": 14.2554352
	},
	{
		"name": "Joes cafe",
		"latitude": 40.8494446,
		"longitude": 14.25856
	},
	{
		"name": "Opera Teatrodelgusto",
		"latitude": 40.8465213,
		"longitude": 14.2515705
	},
	{
		"name": "caffe' la nuit srl",
		"latitude": 40.8308068,
		"longitude": 14.2502983
	},
	{
		"name": "Mazz - Bar Pasticceria",
		"latitude": 40.850333,
		"longitude": 14.255619
	},
	{
		"name": "Certosa Cafe",
		"latitude": 40.8438275,
		"longitude": 14.2407437
	},
	{
		"name": "Arx Cafe",
		"latitude": 40.844362,
		"longitude": 14.2398126
	},
	{
		"name": "Angelo Carbone",
		"latitude": 40.8519362,
		"longitude": 14.2545437
	},
	{
		"name": "Pizzeria Oliva da Carla e Salvatore",
		"latitude": 40.8591246,
		"longitude": 14.2492721
	},
	{
		"name": "Caffé Lollo",
		"latitude": 40.846631,
		"longitude": 14.250155
	},
	{
		"name": "Il vero bar del Professore",
		"latitude": 40.8376204,
		"longitude": 14.2485171
	},
	{
		"name": "Monidee Cafè",
		"latitude": 40.8374922,
		"longitude": 14.2487752
	},
	{
		"name": "Caffetteria Materdei",
		"latitude": 40.8547507,
		"longitude": 14.241103
	},
	{
		"name": "Caffé Plaza",
		"latitude": 40.8395727,
		"longitude": 14.2424151
	},
	{
		"name": "Cafè Max",
		"latitude": 40.8390843,
		"longitude": 14.2486964
	},
	{
		"name": "marSuì cafè",
		"latitude": 40.8392203,
		"longitude": 14.2496612
	},
	{
		"name": "Caffetteria De Rosa",
		"latitude": 40.8388906,
		"longitude": 14.2502326
	},
	{
		"name": "Casa Viscardi",
		"latitude": 40.8389707,
		"longitude": 14.2501536
	},
	{
		"name": "Caffetteria Cuore",
		"latitude": 40.8388865,
		"longitude": 14.2511015
	},
	{
		"name": "Ceraldi Caffé",
		"latitude": 40.844507,
		"longitude": 14.2488462
	},
	{
		"name": "Caffetteria Le Buon Caffè",
		"latitude": 40.8378487,
		"longitude": 14.2491258
	},
	{
		"name": "Antico caffè Prencipe",
		"latitude": 40.8401346,
		"longitude": 14.250451
	},
	{
		"name": "Fuori dal Comune",
		"latitude": 40.8404754,
		"longitude": 14.2505625
	},
	{
		"name": "Caffè Add'à Signora",
		"latitude": 40.8394681,
		"longitude": 14.2515863
	},
	{
		"name": "Caffetteria Macario",
		"latitude": 40.8408682,
		"longitude": 14.2506834
	},
	{
		"name": "Cafè Royal",
		"latitude": 40.8414233,
		"longitude": 14.2506525
	},
	{
		"name": "Caffetteria Angelone",
		"latitude": 40.8413954,
		"longitude": 14.2502029
	},
	{
		"name": "Caffé Viviani",
		"latitude": 40.8329763,
		"longitude": 14.2430584
	},
	{
		"name": "Pasticceria Varriale",
		"latitude": 40.8354197,
		"longitude": 14.2423297
	},
	{
		"name": "Ò Ver Cafè",
		"latitude": 40.8415907,
		"longitude": 14.2525879
	},
	{
		"name": "Caffetteria Moka",
		"latitude": 40.8417595,
		"longitude": 14.251031
	},
	{
		"name": "Barbara Caffè",
		"latitude": 40.8418877,
		"longitude": 14.2518533
	},
	{
		"name": "Charlie's Bar",
		"latitude": 40.8416654,
		"longitude": 14.2493714
	},
	{
		"name": "Caffè Roma",
		"latitude": 40.8418616,
		"longitude": 14.2486331
	},
	{
		"name": "Caffè Guida",
		"latitude": 40.842249,
		"longitude": 14.2522315
	},
	{
		"name": "Caffè dei Fiorentini",
		"latitude": 40.8423296,
		"longitude": 14.25084
	},
	{
		"name": "Enjoy Bar",
		"latitude": 40.8423837,
		"longitude": 14.251524
	},
	{
		"name": "De Rosa Snack Bar",
		"latitude": 40.8424276,
		"longitude": 14.251526
	},
	{
		"name": "Gran Caffè Ferrieri",
		"latitude": 40.8425428,
		"longitude": 14.2503797
	},
	{
		"name": "Caffè Bistrot Toledo",
		"latitude": 40.8423705,
		"longitude": 14.249497
	},
	{
		"name": "Bar Gallo",
		"latitude": 40.8424548,
		"longitude": 14.2480354
	},
	{
		"name": "Donato Bar",
		"latitude": 40.8423802,
		"longitude": 14.2478807
	},
	{
		"name": "Caffè Marino",
		"latitude": 40.8429316,
		"longitude": 14.2477916
	},
	{
		"name": "Caffè 2000",
		"latitude": 40.8439113,
		"longitude": 14.2488706
	},
	{
		"name": "Trattoria Di Angeli",
		"latitude": 40.8496366,
		"longitude": 14.2637241
	},
	{
		"name": "Bar Seccia",
		"latitude": 40.8438007,
		"longitude": 14.2522582
	},
	{
		"name": "Culture Cafè",
		"latitude": 40.8443156,
		"longitude": 14.2518546
	},
	{
		"name": "Cafè La Posta",
		"latitude": 40.8441213,
		"longitude": 14.2520048
	},
	{
		"name": "Portanova",
		"latitude": 40.8468245,
		"longitude": 14.2590527
	},
	{
		"name": "Intra Moenia",
		"latitude": 40.8504288,
		"longitude": 14.2520497
	},
	{
		"name": "Cafè Amadeus",
		"latitude": 40.8371257,
		"longitude": 14.2339812
	},
	{
		"name": "Il Baretto",
		"latitude": 40.8461375,
		"longitude": 14.248636
	},
	{
		"name": "Mexico",
		"latitude": 40.849374,
		"longitude": 14.2497145
	},
	{
		"name": "Boss di capuccino",
		"latitude": 40.8515083,
		"longitude": 14.2589707
	},
	{
		"name": "da Mario",
		"latitude": 40.8499472,
		"longitude": 14.2595491
	},
	{
		"name": "Pizza etc",
		"latitude": 40.8529274,
		"longitude": 14.263038
	},
	{
		"name": "Cafe",
		"latitude": 40.8516018,
		"longitude": 14.2518806
	},
	{
		"name": "Caffetteria Viva Napoli",
		"latitude": 40.8532921,
		"longitude": 14.2691427
	},
	{
		"name": "Stairs Coffee Shop",
		"latitude": 40.8439926,
		"longitude": 14.2282718
	},
	{
		"name": "Ventimetriquadri - specialty coffee",
		"latitude": 40.8453234,
		"longitude": 14.2316852
	},
	{
		"name": "Garden café",
		"latitude": 40.8641205,
		"longitude": 14.3422544
	},
	{
		"name": "Bar",
		"latitude": 40.8379908,
		"longitude": 14.1839508
	},
	{
		"name": "Bar Cafe Music",
		"latitude": 40.8496024,
		"longitude": 14.2518328
	},
	{
		"name": "Caffetteria d'Alessia",
		"latitude": 40.8360994,
		"longitude": 14.2456949
	},
	{
		"name": "Caffè Ferrieri",
		"latitude": 40.8489869,
		"longitude": 14.2496166
	},
	{
		"name": "Chalet delle Rose",
		"latitude": 40.8249033,
		"longitude": 14.22097
	},
	{
		"name": "Chalet Caracciolo",
		"latitude": 40.8252607,
		"longitude": 14.220734
	},
	{
		"name": "Chalet delle Palme",
		"latitude": 40.8260565,
		"longitude": 14.2202715
	},
	{
		"name": "Cuccuma Caffè",
		"latitude": 40.847777,
		"longitude": 14.2540246
	},
	{
		"name": "Caffè Doris",
		"latitude": 40.8567406,
		"longitude": 14.2428808
	},
	{
		"name": "Trinity Cafe",
		"latitude": 40.8463884,
		"longitude": 14.2515047
	},
	{
		"name": "KarmaCore",
		"latitude": 40.8511469,
		"longitude": 14.2516408
	},
	{
		"name": "Dante 43",
		"latitude": 40.8486607,
		"longitude": 14.2506584
	},
	{
		"name": "Spazionea Café Bistrot Libri",
		"latitude": 40.8504133,
		"longitude": 14.2521335
	},
	{
		"name": "Caffe’ Universita’",
		"latitude": 40.8458054,
		"longitude": 14.2585745
	},
	{
		"name": "Caffe Bistrot Diaz",
		"latitude": 40.8502142,
		"longitude": 14.2548599
	},
	{
		"name": "Caffetteria Vanvitelli",
		"latitude": 40.8442887,
		"longitude": 14.2315274
	},
	{
		"name": "Caffè Reginelle",
		"latitude": 40.8359589,
		"longitude": 14.2474893
	},
	{
		"name": "Intenso",
		"latitude": 40.8138305,
		"longitude": 14.2072876
	},
	{
		"name": "Prova",
		"latitude": 40.8385819,
		"longitude": 14.3070742
	},
	{
		"name": "Caffetteria Ippolito",
		"latitude": 40.8510524,
		"longitude": 14.2571669
	},
	{
		"name": "Gran caffè San Gennaro",
		"latitude": 40.8515855,
		"longitude": 14.2594974
	},
	{
		"name": "Ke Bar",
		"latitude": 40.8143933,
		"longitude": 14.2078617
	},
	{
		"name": "Pasticceria Carraturo Vitorio",
		"latitude": 40.8495033,
		"longitude": 14.2692947
	},
	{
		"name": "II Groto Pub E Grill",
		"latitude": 40.85557,
		"longitude": 14.2483037
	},
	{
		"name": "Pizzeria Da Nicola dal 1998",
		"latitude": 40.8569703,
		"longitude": 14.2462223
	},
	{
		"name": "Binario Calmo",
		"latitude": 40.8542975,
		"longitude": 14.2736828
	},
	{
		"name": "Mandara",
		"latitude": 40.8415909,
		"longitude": 14.2491231
	},
	{
		"name": "Ceroli Cafè",
		"latitude": 40.8566254,
		"longitude": 14.2827602
	},
	{
		"name": "Caffè del professore",
		"latitude": 40.8439536,
		"longitude": 14.2488291
	},
	{
		"name": "Café Mergellina",
		"latitude": 40.8280199,
		"longitude": 14.2199224
	},
	{
		"name": "Kahvé: Coffee and Pasta",
		"latitude": 40.829351,
		"longitude": 14.3258439
	},
	{
		"name": "Trianon al Vomero",
		"latitude": 40.8431572,
		"longitude": 14.2341257
	},
	{
		"name": "Naoemi Caffè",
		"latitude": 40.8435101,
		"longitude": 14.2285462
	},
	{
		"name": "Alvino 29",
		"latitude": 40.8433967,
		"longitude": 14.2305626
	},
	{
		"name": "Leopoldo",
		"latitude": 40.8436806,
		"longitude": 14.2280116
	},
	{
		"name": "Café do Brasil",
		"latitude": 40.8432047,
		"longitude": 14.2281122
	},
	{
		"name": "Infinity Cafè",
		"latitude": 40.8432831,
		"longitude": 14.2266669
	},
	{
		"name": "Bar Central",
		"latitude": 40.8426441,
		"longitude": 14.2335372
	},
	{
		"name": "Il Kioskett",
		"latitude": 40.8279863,
		"longitude": 14.2195781
	},
	{
		"name": "Lucrezia",
		"latitude": 40.8235363,
		"longitude": 14.2186523
	},
	{
		"name": "Fumo e Caffè",
		"latitude": 40.8310146,
		"longitude": 14.2197477
	},
	{
		"name": "Chiquitos",
		"latitude": 40.8261948,
		"longitude": 14.2200056
	},
	{
		"name": "Moccia",
		"latitude": 40.8204,
		"longitude": 14.2140089
	},
	{
		"name": "Cremeria Pisa",
		"latitude": 40.8193031,
		"longitude": 14.2131249
	},
	{
		"name": "Malia Chalet",
		"latitude": 40.8246315,
		"longitude": 14.2206534
	},
	{
		"name": "Chalet dei Platani",
		"latitude": 40.8293322,
		"longitude": 14.2203961
	},
	{
		"name": "Cafè Guapa",
		"latitude": 40.835272,
		"longitude": 14.2203241
	},
	{
		"name": "Coffee Moon",
		"latitude": 40.8495028,
		"longitude": 14.2587508
	},
	{
		"name": "Caffetteria Passaro",
		"latitude": 40.8659259,
		"longitude": 14.2524011
	},
	{
		"name": "Ippolito Caffè",
		"latitude": 40.8508482,
		"longitude": 14.2570742
	},
	{
		"name": "L'Angolo del Caffè",
		"latitude": 40.8415687,
		"longitude": 14.2540987
	},
	{
		"name": "Caffè del Professore",
		"latitude": 40.8463093,
		"longitude": 14.2561601
	},
	{
		"name": "Made In Sud",
		"latitude": 40.8562256,
		"longitude": 14.2573129
	},
	{
		"name": "Caffè Duello",
		"latitude": 40.8550921,
		"longitude": 14.2556673
	},
	{
		"name": "Infinity",
		"latitude": 40.8559065,
		"longitude": 14.2562995
	},
	{
		"name": "Liberty",
		"latitude": 40.8525558,
		"longitude": 14.250299
	},
	{
		"name": "Il Mantegno",
		"latitude": 40.8484465,
		"longitude": 14.2559314
	},
	{
		"name": "La Campagnola",
		"latitude": 40.8483765,
		"longitude": 14.255981
	},
	{
		"name": "Caffè Mauro",
		"latitude": 40.8518111,
		"longitude": 14.2594624
	},
	{
		"name": "S. Francesco",
		"latitude": 40.8527875,
		"longitude": 14.2633806
	},
	{
		"name": "Tarsia",
		"latitude": 40.8478887,
		"longitude": 14.2474115
	},
	{
		"name": "O‘ Girasole",
		"latitude": 40.8510644,
		"longitude": 14.2506789
	},
	{
		"name": "Angela",
		"latitude": 40.8510308,
		"longitude": 14.2504824
	},
	{
		"name": "BiG",
		"latitude": 40.8474971,
		"longitude": 14.24622
	},
	{
		"name": "Luciano Mazzone",
		"latitude": 40.8463401,
		"longitude": 14.2478434
	},
	{
		"name": "Le Petit Café",
		"latitude": 40.8438289,
		"longitude": 14.2337378
	},
	{
		"name": "Nayman Café",
		"latitude": 40.8502747,
		"longitude": 14.2654703
	},
	{
		"name": "Cafè Vomero",
		"latitude": 40.8441005,
		"longitude": 14.2328589
	},
	{
		"name": "Azteca",
		"latitude": 40.845294,
		"longitude": 14.2583453
	},
	{
		"name": "Napolitan",
		"latitude": 40.8513919,
		"longitude": 14.2671754
	},
	{
		"name": "Torraldo",
		"latitude": 40.8476007,
		"longitude": 14.2621448
	},
	{
		"name": "Bar Louis",
		"latitude": 40.8511283,
		"longitude": 14.2674913
	},
	{
		"name": "Kimbo",
		"latitude": 40.8506506,
		"longitude": 14.2667172
	},
	{
		"name": "Maraucci",
		"latitude": 40.8501605,
		"longitude": 14.2683897
	},
	{
		"name": "Il Pomodoro",
		"latitude": 40.8439703,
		"longitude": 14.2562928
	},
	{
		"name": "Centrale Del Caffè",
		"latitude": 40.8514861,
		"longitude": 14.2686847
	},
	{
		"name": "Le Arcate",
		"latitude": 40.8432876,
		"longitude": 14.2556085
	},
	{
		"name": "Il Caffè Di Nappli",
		"latitude": 40.8504421,
		"longitude": 14.2662862
	},
	{
		"name": "Tarantino",
		"latitude": 40.8456556,
		"longitude": 14.2589112
	},
	{
		"name": "Federico",
		"latitude": 40.8443075,
		"longitude": 14.2568228
	},
	{
		"name": "Toraldo",
		"latitude": 40.8445439,
		"longitude": 14.259309
	},
	{
		"name": "O‘ Ver",
		"latitude": 40.8450497,
		"longitude": 14.2600774
	},
	{
		"name": "Dolci Momenti",
		"latitude": 40.8471876,
		"longitude": 14.2685399
	},
	{
		"name": "Mauro",
		"latitude": 40.8460871,
		"longitude": 14.263708
	},
	{
		"name": "Angela",
		"latitude": 40.8457703,
		"longitude": 14.2604555
	},
	{
		"name": "EspoBar",
		"latitude": 40.846718,
		"longitude": 14.2663998
	},
	{
		"name": "Venere",
		"latitude": 40.8444544,
		"longitude": 14.2591693
	},
	{
		"name": "Vigilante",
		"latitude": 40.8495136,
		"longitude": 14.2681776
	},
	{
		"name": "Mexico",
		"latitude": 40.8447152,
		"longitude": 14.2568653
	},
	{
		"name": "Federico",
		"latitude": 40.8448103,
		"longitude": 14.2569777
	},
	{
		"name": "Zambardino",
		"latitude": 40.8466323,
		"longitude": 14.2598887
	},
	{
		"name": "Dolce Amaro",
		"latitude": 40.8479,
		"longitude": 14.2613925
	},
	{
		"name": "Caffè Della Borsa",
		"latitude": 40.8437716,
		"longitude": 14.2549821
	},
	{
		"name": "San Marco",
		"latitude": 40.8407712,
		"longitude": 14.2538092
	},
	{
		"name": "Oh Cafe",
		"latitude": 40.8434793,
		"longitude": 14.2532842
	},
	{
		"name": "San Marco",
		"latitude": 40.8402988,
		"longitude": 14.2534152
	},
	{
		"name": "Moccia",
		"latitude": 40.8477143,
		"longitude": 14.2535096
	},
	{
		"name": "Barett",
		"latitude": 40.8478539,
		"longitude": 14.2535267
	},
	{
		"name": "Centrale Del Caffè",
		"latitude": 40.847892,
		"longitude": 14.2536294
	},
	{
		"name": "Chiaia",
		"latitude": 40.8365633,
		"longitude": 14.246475
	},
	{
		"name": "Serpentone",
		"latitude": 40.8357181,
		"longitude": 14.2433811
	},
	{
		"name": "Le Shabby Caf",
		"latitude": 40.8509719,
		"longitude": 14.2501829
	},
	{
		"name": "Astra",
		"latitude": 40.8477524,
		"longitude": 14.2555175
	},
	{
		"name": "Kremoso",
		"latitude": 40.8429716,
		"longitude": 14.2563173
	},
	{
		"name": "Coffee Is Always A Good Idea",
		"latitude": 40.8406836,
		"longitude": 14.254216
	},
	{
		"name": "Centrale Del Caffè",
		"latitude": 40.8440992,
		"longitude": 14.2575525
	},
	{
		"name": "Rivalta",
		"latitude": 40.8351466,
		"longitude": 14.2422822
	},
	{
		"name": "Barguida",
		"latitude": 40.836689,
		"longitude": 14.2383585
	},
	{
		"name": "Fellini",
		"latitude": 40.8355848,
		"longitude": 14.2427435
	},
	{
		"name": "La Fioreria",
		"latitude": 40.8355079,
		"longitude": 14.2412285
	},
	{
		"name": "USO Naples",
		"latitude": 40.8802781,
		"longitude": 14.2907111
	},
	{
		"name": "Café Donn'Anna",
		"latitude": 40.8201139,
		"longitude": 14.2136916
	},
	{
		"name": "Bar Vittorio",
		"latitude": 40.8090962,
		"longitude": 14.198646
	},
	{
		"name": "Casa Infante",
		"latitude": 40.8243815,
		"longitude": 14.220449
	},
	{
		"name": "Bar Centrale",
		"latitude": 40.8138331,
		"longitude": 14.3385796
	},
	{
		"name": "Apollo",
		"latitude": 40.8172544,
		"longitude": 14.17569
	},
	{
		"name": "my Way cafe Toraldo",
		"latitude": 40.8622693,
		"longitude": 14.2669923
	},
	{
		"name": "Taralleria Napoletana",
		"latitude": 40.8488332,
		"longitude": 14.2563833
	},
	{
		"name": "Caffè arabo",
		"latitude": 40.8502507,
		"longitude": 14.2523215
	},
	{
		"name": "Mò",
		"latitude": 40.8244394,
		"longitude": 14.1879109
	}
]
